ville_id,ville,pays,latitude,longitude
1,Antananarivo,Madagascar,-18.8792,47.5079
2,Moscow,Russia,55.7558,37.6173
3,New York,USA,40.7128,-74.006
4,Paris,France,48.8566,2.3522
5,Sydney,Australia,-33.8688,151.2093
6,Tokyo,Japan,35.6762,139.6503
